,City,Lat,Lng,Max Temp,Humidity,Cloudiness,Wind Speed,Country,Date
0,Tongren,27.7172,109.1853,89.87,63,55,7.43,CN,1658377437
1,Bengkulu,-3.8004,102.2655,83.68,68,24,3.98,ID,1658377437
2,Tommot,58.9564,126.2925,78.4,55,13,4.36,RU,1658377438
3,Cherskiy,68.75,161.3,47.57,40,14,19.39,RU,1658377438
4,Yellowknife,62.456,-114.3525,66.72,42,20,10.36,CA,1658377438
5,Khatanga,71.9667,102.5,54.63,49,100,20.54,RU,1658377439
6,Avarua,-21.2078,-159.775,69.85,78,75,13.8,CK,1658377397
7,Correntina,-13.3433,-44.6367,66.94,64,34,3.22,BR,1658377439
8,Eydhafushi,5.1033,73.0708,82.06,72,100,15.64,MV,1658377439
9,Ponta do Sol,32.6667,-17.1,72.72,67,9,6.96,PT,1658376980
10,Inta,66.0317,60.1659,63.88,62,79,9.24,RU,1658377440
11,Smithers,54.7804,-127.1743,64.72,48,20,2.3,CA,1658377440
12,Esperance,-33.8667,121.9,57.04,68,100,17.67,AU,1658377441
13,Tuktoyaktuk,69.4541,-133.0374,48.2,100,100,4.61,CA,1658377155
14,Thompson,55.7435,-97.8558,59.16,88,40,8.05,CA,1658376938
15,Kapaa,22.0752,-159.319,84.18,73,40,17.27,US,1658377441
16,Rikitea,-23.1203,-134.9692,73.26,77,0,5.7,PF,1658376972
17,Prince Rupert,54.3161,-130.3201,56.89,82,75,6.91,CA,1658377442
18,Qaanaaq,77.484,-69.3632,40.75,80,100,6.76,GL,1658377442
19,Buala,-8.145,159.5921,85.15,67,70,7.36,SB,1658377442
20,Beyneu,45.3167,55.2,84.79,24,58,17.65,KZ,1658377443
21,Kaduy,59.2,37.15,55.53,94,82,9.15,RU,1658377443
22,Constitución,-35.3333,-72.4167,50.52,89,2,6.17,CL,1658377444
23,Hilo,19.7297,-155.09,78.53,81,20,10.36,US,1658377444
24,Husavik,66.0449,-17.3389,44.8,88,65,2.93,IS,1658377444
25,Ancud,-41.8697,-73.8203,40.23,64,62,12.48,CL,1658377445
26,Nishihara,26.1842,127.7558,88.88,79,20,10.36,JP,1658377445
27,Uni,57.7535,51.4923,58.86,80,9,3.71,RU,1658377445
28,Zonguldak,41.25,31.8333,52.65,69,0,3.76,TR,1658377446
29,Lebu,-37.6167,-73.65,50.36,92,100,3.6,CL,1658377446
30,Mentougou,39.9392,116.0917,88.74,42,13,3.38,CN,1658377446
31,Sinnamary,5.3833,-52.95,76.87,86,28,5.28,GF,1658377447
32,Ushuaia,-54.8,-68.3,29.86,86,100,18.41,AR,1658377232
33,Cape Town,-33.9258,18.4232,55.38,77,0,2.3,ZA,1658377161
34,Sept-Îles,50.2001,-66.3821,66.2,66,0,5.75,CA,1658377448
35,Leningradskiy,69.3833,178.4167,32.99,97,100,20.71,RU,1658377373
36,Busselton,-33.65,115.3333,60.35,72,41,17.18,AU,1658376974
37,Butaritari,3.0707,172.7902,80.91,77,93,8.03,KI,1658377448
38,Upernavik,72.7868,-56.1549,48.76,67,100,7.99,GL,1658377235
39,Cidreira,-30.1811,-50.2056,60.84,95,4,12.33,BR,1658377449
40,Mataura,-46.1927,168.8643,47.48,86,100,3.22,NZ,1658376976
41,Montefiascone,42.5393,12.0362,70.34,91,0,2.06,IT,1658377449
42,Lüderitz,-26.6481,15.1594,55.47,62,0,15.3,NA,1658377449
43,Zyryanka,65.75,150.85,62.29,40,63,2.68,RU,1658377450
44,Bredasdorp,-34.5322,20.0403,43.29,88,0,5.14,ZA,1658377450
45,Carnarvon,-24.8667,113.6333,68.07,94,100,17.27,AU,1658376979
46,Dikson,73.5069,80.5464,38.34,95,100,31.81,RU,1658377155
47,Punta Arenas,-53.15,-70.9167,32.11,80,20,18.41,CL,1658376976
48,Saldanha,-33.0117,17.9442,35.65,76,1,7.18,ZA,1658377451
49,Isla Mujeres,21.2311,-86.731,82.45,79,6,9.04,MX,1658377451
50,Cayenne,4.9333,-52.3333,78.1,1,0,1.14,GF,1658377452
51,Mayo,38.8876,-76.5119,84.13,85,0,4.61,US,1658377452
52,Kahului,20.8947,-156.47,76.96,73,40,23.02,US,1658377452
53,Pangnirtung,66.1451,-65.7125,45.48,87,100,0.63,CA,1658377453
54,Rzhev,56.2624,34.3282,59.2,95,97,12.26,RU,1658377453
55,Atuona,-9.8,-139.0333,77.59,76,35,15.55,PF,1658376980
56,Grand-Lahou,5.1367,-5.0242,73.24,73,65,7.18,CI,1658377453
57,Kūhdasht,33.535,47.6061,87.96,14,0,4.25,IR,1658377454
58,Orange Cove,36.6244,-119.3137,94.66,20,0,5.75,US,1658377454
59,Chokurdakh,70.6333,147.9167,59.13,28,59,9.73,RU,1658377455
60,Fairbanks,64.8378,-147.7164,67.6,56,75,5.75,US,1658377252
61,Nosy Varika,-20.5833,48.5333,67.55,77,68,8.08,MG,1658377455
62,Nikolskoye,59.7035,30.7861,68.88,79,6,7.72,RU,1658377456
63,Nome,64.5011,-165.4064,48.27,81,100,17.27,US,1658377456
64,Kulhudhuffushi,6.6221,73.07,81.75,75,100,18.28,MV,1658377456
65,Bandarbeyla,9.4942,50.8122,77.83,65,7,24.92,SO,1658377456
66,Hithadhoo,-0.6,73.0833,80.78,71,100,5.28,MV,1658377319
67,Torbay,47.6666,-52.7314,62.76,88,100,34.52,CA,1658377457
68,Tocopilla,-22.092,-70.1979,60.03,76,80,0.87,CL,1658377313
69,Belmonte,-15.8631,-38.8828,70.54,85,19,7.43,BR,1658377457
70,Puerto Carreño,6.189,-67.4859,74.34,89,94,3.44,CO,1658377458
71,La Ronge,55.1001,-105.2842,66.42,55,75,9.22,CA,1658377458
72,Daru,-9.0763,143.2092,80.02,79,66,11.79,PG,1658377458
73,Cosamaloapan,18.3667,-95.8,77.13,83,17,3.11,MX,1658377459
74,Kargat,55.1956,80.2811,64.99,83,94,7.9,RU,1658377327
75,San Luis,-33.295,-66.3356,49.42,53,0,4.5,AR,1658377459
76,Kidodi,-7.6036,37.0044,63.03,92,52,1.34,TZ,1658377460
77,Çorovodë,40.5042,20.2272,68.59,41,0,5.35,AL,1658377460
78,Waitati,-45.75,170.5667,45.81,65,82,8.46,NZ,1658377460
79,Swan Hill,-35.3378,143.5544,62.46,47,23,13.94,AU,1658377246
80,Port Elizabeth,-33.918,25.5701,52.32,94,0,5.75,ZA,1658377461
81,Port Shepstone,-30.7414,30.455,60.26,80,5,4.59,ZA,1658377461
82,Longyearbyen,78.2186,15.6401,51.64,82,75,10.36,SJ,1658377462
83,Raja,8.4596,25.678,67.86,95,99,3.36,SS,1658377462
84,Verkhnyaya Toyma,62.2349,44.9985,62.29,89,9,3.13,RU,1658377463
85,Leshan,29.5623,103.7639,88.09,54,75,3.2,CN,1658377463
86,Mar del Plata,-38.0023,-57.5575,55.09,68,0,17.27,AR,1658377207
87,Sørland,67.667,12.6934,51.66,89,100,12.75,NO,1658377463
88,Luziânia,-16.2525,-47.9503,60.49,57,0,3.27,BR,1658377464
89,Pithorāgarh,29.5833,80.2167,66.63,92,100,0.45,IN,1658377464
90,Lázaro Cárdenas,17.9583,-102.2,80.46,89,18,3.0,MX,1658377464
91,Saskylakh,71.9167,114.0833,59.02,46,30,19.62,RU,1658377465
92,Mount Gambier,-37.8333,140.7667,59.25,52,4,7.85,AU,1658377465
93,Yulara,-25.2406,130.9889,66.24,24,6,10.74,AU,1658377466
94,Albany,42.6001,-73.9662,81.01,72,15,4.94,US,1658376978
95,Vaini,-21.2,-175.2,77.16,83,20,8.05,TO,1658377466
96,Barrow,71.2906,-156.7887,46.42,76,0,13.8,US,1658377466
97,Port Alfred,-33.5906,26.891,55.18,95,67,3.0,ZA,1658377467
98,Batagay-Alyta,67.8006,130.4114,55.83,60,99,5.1,RU,1658377467
99,Nadym,65.5333,72.5167,56.89,54,69,16.13,RU,1658377467
100,Pinega,64.7001,43.3936,67.84,65,8,4.94,RU,1658377468
101,Aktash,50.3,87.7333,52.47,44,95,4.81,RU,1658377468
102,Evinayong,1.4368,10.5512,66.38,98,100,1.7,GQ,1658377468
103,Cockburn Town,21.4612,-71.1419,82.08,80,2,21.65,TC,1658377469
104,Baykit,61.67,96.37,70.41,47,36,4.38,RU,1658377469
105,Beringovskiy,63.05,179.3167,47.41,68,87,13.82,RU,1658377234
106,Xinyang,32.1228,114.0656,85.15,73,63,4.29,CN,1658377184
107,Salalah,17.0151,54.0924,75.29,100,100,6.91,OM,1658377421
108,Alice Springs,-23.7,133.8833,62.15,27,7,9.22,AU,1658377350
109,Skellefteå,64.7507,20.9528,62.01,94,75,1.01,SE,1658377470
110,Coffs Harbour,-30.3,153.1333,60.76,72,75,18.41,AU,1658377187
111,Saint-Augustin,51.226,-58.6502,57.9,87,98,10.02,CA,1658377463
112,Micheweni,-4.9667,39.8333,73.49,81,61,14.76,TZ,1658377471
113,Mahébourg,-20.4081,57.7,71.26,94,75,20.71,MU,1658377471
114,Ciudad Bolivar,8.1222,-63.5497,77.7,86,100,5.32,VE,1658377471
115,Sumalig,7.9986,123.6627,91.47,59,72,0.74,PH,1658377472
116,Castro,-24.7911,-50.0119,54.79,94,4,4.21,BR,1658377233
117,Nabire,-3.3667,135.4833,85.98,63,92,5.14,ID,1658377472
118,Champerico,14.3,-91.9167,81.45,80,100,6.42,GT,1658377472
119,Kaseda-shirakame,31.4167,130.3167,83.97,85,100,14.36,JP,1658377473
120,São Filipe,14.8961,-24.4956,75.18,90,46,4.94,CV,1658377473
121,Marystown,47.1666,-55.1483,55.85,100,99,8.99,CA,1658377473
122,Bang Sai,14.2124,100.4966,80.98,95,100,11.74,TH,1658377474
123,Hobart,-42.8794,147.3294,52.27,64,20,5.75,AU,1658377226
124,Asău,46.4333,26.4,67.28,75,0,3.53,RO,1658377384
125,Tonstad,58.6626,6.7169,63.12,88,98,5.64,NO,1658377474
126,Ormara,25.2088,64.6357,83.37,82,96,16.67,PK,1658377475
127,Katobu,-4.9408,122.5276,80.47,84,55,8.59,ID,1658377475
128,Saint Paul Harbor,57.79,-152.4072,56.71,67,20,10.36,US,1658377475
129,Payo,-3.7508,103.6372,88.54,58,14,2.19,ID,1658377476
130,Pacific Grove,36.6177,-121.9166,59.54,91,100,10.0,US,1658377476
131,Bluff,-46.6,168.3333,48.79,71,100,8.66,NZ,1658377476
132,Bethel,41.3712,-73.414,79.63,81,1,3.58,US,1658377477
133,Hailar,49.2,119.7,85.28,32,10,4.25,CN,1658377477
134,Boa Vista,2.8197,-60.6733,78.78,78,40,3.44,BR,1658377477
135,Soyo,-6.1349,12.3689,68.25,94,10,5.84,AO,1658377478
136,Jamestown,42.097,-79.2353,76.71,88,75,9.22,US,1658377396
137,Lorengau,-2.0226,147.2712,84.25,67,89,4.72,PG,1658377478
138,Koslan,63.4564,48.8989,68.25,62,39,5.93,RU,1658377479
139,Severo-Kuril'sk,50.6789,156.125,52.02,97,98,14.29,RU,1658377479
140,Sabang,5.8933,95.3214,83.1,71,90,16.89,ID,1658377479
141,Hermanus,-34.4187,19.2345,49.5,75,1,5.53,ZA,1658377480
142,Nanortalik,60.1432,-45.2371,49.03,87,11,13.27,GL,1658377396
143,Tura,25.5198,90.2201,80.13,87,99,4.63,IN,1658377480
144,Namatanai,-3.6667,152.4333,84.13,69,40,7.34,PG,1658377481
145,Davidson,36.1501,-86.7833,88.09,75,75,9.22,US,1658377481
146,Bonthe,7.5264,-12.505,75.16,86,100,9.78,SL,1658377481
147,George Town,5.4112,100.3354,88.9,70,20,3.44,MY,1658377481
148,Ilmajoki,62.7333,22.5667,64.22,58,0,9.22,FI,1658377482
149,Geraldton,-28.7667,114.6,64.81,88,75,12.66,AU,1658377482
150,Gander,48.9682,-54.5906,59.16,93,100,10.36,CA,1658377482
151,Morādābād,28.8333,78.7833,89.04,57,100,10.87,IN,1658377483
152,Touros,-5.1989,-35.4608,72.45,93,95,8.28,BR,1658377483
153,Kemijärvi,66.7131,27.4306,61.32,69,69,3.24,FI,1658377483
154,East London,-33.0153,27.9116,56.34,100,20,8.05,ZA,1658377218
155,Hasaki,35.7333,140.8333,90.28,79,93,8.84,JP,1658377484
156,Arraial do Cabo,-22.9661,-42.0278,70.29,83,41,9.95,BR,1658377227
157,Mithi,24.7318,69.7981,87.19,66,78,21.85,PK,1658377484
158,Ludza,56.55,27.7167,58.01,78,8,9.26,LV,1658377484
159,San Quintín,30.4833,-115.95,69.73,79,2,9.51,MX,1658377485
160,Saint-Pierre,-21.3393,55.4781,69.48,62,1,16.11,RE,1658377485
161,Katsuura,35.1333,140.3,81.36,77,92,8.88,JP,1658377486
162,Provideniya,64.3833,-173.3,44.71,70,75,20.13,RU,1658377486
163,Dunedin,-45.8742,170.5036,45.81,65,92,14.0,NZ,1658377209
164,Port Hawkesbury,45.6169,-61.3485,66.15,75,0,8.05,CA,1658377486
165,Antofagasta,-23.65,-70.4,56.48,87,100,1.36,CL,1658377384
166,Labuhan,-6.8844,112.2051,85.68,57,25,6.15,ID,1658377487
167,Puqi,29.7167,113.8833,92.62,61,99,7.85,CN,1658377487
168,Cabo San Lucas,22.8909,-109.9124,88.9,54,0,17.27,MX,1658377487
169,Sol'-Iletsk,51.1631,54.9918,72.03,45,4,5.55,RU,1658377488
170,Umeå,63.8284,20.2597,58.93,94,0,2.3,SE,1658377488
171,Tazovsky,67.4667,78.7,45.36,86,100,8.03,RU,1658377489
172,Viedma,-40.8135,-62.9967,47.68,37,84,23.64,AR,1658377228
173,Carutapera,-1.195,-46.02,74.93,91,35,4.03,BR,1658377489
174,Pinawa,50.1489,-95.8811,63.7,78,1,9.64,CA,1658377490
175,Kavaratti,10.5669,72.642,80.98,79,100,20.29,IN,1658377490
176,Ponta Delgada,37.7333,-25.6667,75.51,94,40,2.3,PT,1658377490
177,Pisco,-13.7,-76.2167,60.85,77,100,4.61,PE,1658377491
178,Brookings,44.3114,-96.7984,75.2,79,40,5.75,US,1658377491
179,Kavarskas,55.4333,24.9167,57.06,89,14,5.86,LT,1658377492
180,Manokwari,-0.8667,134.0833,83.21,71,71,3.94,ID,1658377492
181,Santa Isabel Rio Negro,-0.4139,-65.0192,71.49,99,98,1.7,BR,1658377492
182,Nuuk,64.1835,-51.7216,59.61,67,100,25.32,GL,1658377493
183,Ulkan,57.243,107.3223,72.52,47,100,3.36,RU,1658377493
184,Norman Wells,65.282,-126.8329,71.64,49,75,2.3,CA,1658377493
185,Fortuna,40.5982,-124.1573,56.35,89,8,5.12,US,1658377364
186,Ngunguru,-35.6167,174.5,56.52,64,11,18.95,NZ,1658377494
187,Rafaela,-31.2503,-61.4867,57.99,58,100,5.21,AR,1658377494
188,Puerto Ayora,-0.7393,-90.3518,68.56,95,75,1.01,EC,1658377227
189,Yakuplu,40.9889,28.6758,67.35,83,0,2.3,TR,1658377495
190,Vao,-22.6667,167.4833,74.19,89,100,12.28,NC,1658377495
191,Ovalle,-30.5983,-71.2003,55.6,84,0,2.48,CL,1658377495
192,Yangjiang,21.85,111.9667,86.81,74,15,12.37,CN,1658377269
193,Khovd,48.0056,91.6419,66.04,33,2,3.76,MN,1658377496
194,Lavrentiya,65.5833,-171.0,40.19,74,100,19.95,RU,1658377496
195,Souillac,-20.5167,57.5167,66.58,94,75,20.71,MU,1658377497
196,Port Blair,11.6667,92.75,84.24,84,100,6.91,IN,1658377386
197,Saint-Philippe,-21.3585,55.7679,69.39,79,47,16.62,RE,1658376973
198,Lata,40.1629,-8.3327,58.96,88,0,1.52,PT,1658377497
199,Borogontsy,62.6683,131.1683,84.43,42,99,8.21,RU,1658377498
200,Bayburt,40.2589,40.2278,56.86,79,100,2.95,TR,1658377498
201,Belaya Gora,68.5333,146.4167,61.29,43,19,6.82,RU,1658377230
202,Chapais,49.7834,-74.8492,65.98,97,100,6.55,CA,1658377498
203,Abhā,18.2164,42.5053,66.02,72,0,4.61,SA,1658377499
204,Olafsvik,64.8945,-23.7142,50.83,71,90,5.46,IS,1658376973
205,Moroni,-11.7022,43.2551,69.8,73,20,3.44,KM,1658377499
206,New Norfolk,-42.7826,147.0587,51.93,53,0,2.1,AU,1658377500
207,Egvekinot,66.3167,-179.1667,44.56,52,85,8.25,RU,1658377500
208,Hong Kong,22.2855,114.1577,93.25,99,10,9.24,HK,1658377500
209,Villarrica,-25.75,-56.4333,66.51,72,57,3.6,PY,1658377501
210,Zhicheng,30.2956,111.5047,83.98,79,100,2.62,CN,1658377501
211,Maridi,4.9158,29.4742,63.19,97,24,1.77,SS,1658377501
212,Sehithwa,-20.4667,22.7167,55.27,62,68,4.83,BW,1658377502
213,Luganville,-15.5333,167.1667,83.28,71,17,9.42,VU,1658377502
214,Tucupita,9.0622,-62.051,73.02,98,100,2.89,VE,1658377503
215,Mashhad,36.297,59.6062,86.14,32,0,4.61,IR,1658377503
216,Najrān,17.4924,44.1277,83.05,44,83,4.47,SA,1658377503
217,Te Anau,-45.4167,167.7167,42.98,86,94,2.62,NZ,1658377504
218,Port Lincoln,-34.7333,135.8667,55.94,62,25,16.53,AU,1658377454
219,Pochutla,15.7432,-96.4661,80.42,90,84,3.44,MX,1658377504
220,Saint George,37.1041,-113.5841,100.99,19,0,10.36,US,1658377261
221,Noumea,-22.2763,166.4572,79.0,99,100,13.62,NC,1658377505
222,Guerrero Negro,27.9769,-114.0611,70.16,76,14,15.61,MX,1658377505
223,Kaitangata,-46.2817,169.8464,45.01,80,94,8.23,NZ,1658377383
224,Tashla,51.7716,52.7427,71.82,47,11,4.16,RU,1658377506
225,Thongwa,16.7619,96.5278,80.76,79,100,6.17,MM,1658377506
226,Kerema,-7.9631,145.7785,81.59,80,17,10.71,PG,1658377507
227,Fort Collins,40.5853,-105.0844,78.04,50,0,12.66,US,1658377227
228,Tegul'det,57.3064,88.1667,67.98,65,96,6.87,RU,1658377507
229,Kruisfontein,-34.0033,24.7314,47.88,92,4,7.34,ZA,1658377507
230,Mossamedes,-15.1961,12.1522,64.09,68,0,5.57,AO,1658377381
231,Cape Coast,5.1053,-1.2466,72.66,78,35,8.48,GH,1658377508
232,Padang,-0.9492,100.3543,86.05,67,36,5.08,ID,1658377312
233,Nizwá,22.9333,57.5333,83.68,74,51,1.34,OM,1658377508
234,Goose Creek,32.981,-80.0326,78.89,92,20,11.5,US,1658377509
235,Puerto Escondido,15.85,-97.0667,83.23,69,40,3.44,MX,1658377509
236,Puerto El Triunfo,13.2833,-88.55,79.27,81,93,4.81,SV,1658377509
237,Hirara,24.8,125.2833,91.67,66,20,13.8,JP,1658377510
238,Los Llanos de Aridane,28.6585,-17.9182,67.75,83,40,16.11,ES,1658377466
239,Tarifa,36.0139,-5.607,75.15,95,15,12.86,ES,1658377510
240,Iqaluit,63.7506,-68.5145,53.33,87,100,4.61,CA,1658377511
241,Ostrovnoy,68.0531,39.5131,52.2,84,24,3.38,RU,1658377453
242,Qingdao,36.0986,120.3719,82.0,69,75,2.24,CN,1658377511
243,Durban,-29.8579,31.0292,63.01,85,3,3.0,ZA,1658377237
244,Ribeira Grande,38.5167,-28.7,72.41,86,7,3.4,PT,1658377232
245,Jalu,29.0331,21.5482,70.41,56,0,9.28,LY,1658377512
246,Skibbereen,51.55,-9.2667,56.1,85,34,4.61,IE,1658377512
247,Ahipara,-35.1667,173.1667,57.31,64,13,17.54,NZ,1658377512
248,Ottersberg,53.1,9.15,66.45,91,100,11.03,DE,1658377513
249,Soma,39.1855,27.6094,62.38,82,0,7.81,TR,1658377513
250,Quelimane,-17.8786,36.8883,66.15,94,20,2.3,MZ,1658377513
251,Mount Isa,-20.7333,139.5,71.37,20,1,13.8,AU,1658377514
252,Eucaliptus,-17.5833,-67.5167,43.14,35,2,3.36,BO,1658377514
253,Vila Franca do Campo,37.7167,-25.4333,75.2,90,43,0.87,PT,1658377514
254,Orocuina,13.4817,-87.105,76.73,73,100,6.02,HN,1658377515
255,Luang Prabang,19.8856,102.1347,87.76,70,75,4.61,LA,1658377515
256,Cravo Norte,6.3017,-70.2041,74.46,93,92,4.34,CO,1658377515
257,Waingapu,-9.6567,120.2641,84.4,54,77,11.39,ID,1658377516
258,Grindavik,63.8424,-22.4338,49.95,93,75,6.91,IS,1658377516
259,Skjervøy,70.0311,20.9714,62.6,79,48,8.81,NO,1658377517
260,College,64.8569,-147.8028,67.59,57,75,5.75,US,1658377490
261,Marawi,7.9986,124.2928,78.22,80,74,5.41,PH,1658377517
262,Ust'-Kut,56.7938,105.7672,74.3,46,80,3.04,RU,1658377518
263,Awjilah,29.1081,21.2869,70.27,56,0,9.26,LY,1658377518
264,Ankpa,7.3706,7.6253,68.83,96,100,6.8,NG,1658377518
265,Oddur,4.1213,43.8894,68.41,76,17,18.39,SO,1658377519
266,Meïganga,6.5167,14.3,63.75,99,92,2.04,CM,1658377519
267,Kurchum,48.5722,83.6542,80.2,26,80,14.47,KZ,1658377519
268,Hongjiang,27.11,109.9956,92.71,53,99,9.48,CN,1658377520
269,Wanning,18.8003,110.3967,83.73,84,15,14.23,CN,1658377520
270,Lompoc,34.6391,-120.4579,68.77,92,75,6.91,US,1658377521
271,Semporna,4.4818,118.6112,86.29,66,33,3.83,MY,1658377521
272,Aklavik,68.2191,-135.0107,61.41,53,100,9.04,CA,1658377521
273,Iturama,-19.7281,-50.1956,68.92,40,3,4.9,BR,1658377522
274,Ulagan,50.6321,87.9563,62.85,44,98,2.91,RU,1658377522
275,Bambous Virieux,-20.3428,57.7575,71.22,94,75,20.71,MU,1658377490
276,Aranos,-24.1333,19.1167,48.04,49,0,6.49,NA,1658377522
277,Ukiah,39.1502,-123.2078,71.37,66,0,4.7,US,1658377523
278,Naze,28.3667,129.4833,88.72,78,85,18.75,JP,1658377523
279,Bathsheba,13.2167,-59.5167,83.01,95,40,19.57,BB,1658377387
280,Buraidah,26.326,43.975,84.65,11,68,3.53,SA,1658377523
281,Hamza,40.4264,71.4956,93.15,11,0,3.33,UZ,1658377524
282,Bonavista,48.6499,-53.1147,59.25,93,100,20.74,CA,1658377524
283,Kamiiso,41.8167,140.65,75.58,83,20,8.05,JP,1658377524
284,Isangel,-19.55,169.2667,79.84,70,95,9.57,VU,1658377525
285,Nísia Floresta,-6.0911,-35.2086,75.58,95,95,5.41,BR,1658377525
286,Faanui,-16.4833,-151.75,77.86,72,10,13.33,PF,1658377525
287,Half Moon Bay,37.4636,-122.4286,64.54,83,100,14.97,US,1658377526
288,Newport,51.5877,-2.9984,62.02,77,85,5.64,GB,1658377237
289,Ginir,7.1333,40.7,55.9,84,98,6.44,ET,1658377526
290,Jūnāgarh,19.8667,82.9333,80.01,81,100,5.03,IN,1658377527
291,Horta,38.5333,-28.6333,71.62,86,7,3.4,PT,1658377527
292,Rocha,-34.4833,-54.3333,59.5,95,56,10.04,UY,1658377527
293,Namtsy,62.7161,129.6658,83.41,49,99,7.78,RU,1658377528
294,Cukai,4.25,103.4167,87.75,63,97,4.92,MY,1658377528
295,Chui,-33.6971,-53.4616,58.03,98,75,7.7,UY,1658376975
296,Rāmhormoz,31.28,49.6035,93.88,45,0,8.16,IR,1658377529
297,Arman',59.7,150.1667,79.02,71,34,5.59,RU,1658377529
298,Taveta,-3.3963,37.6736,61.74,82,52,7.18,KE,1658377529
299,Kango,0.1943,10.0951,72.57,88,100,2.51,GA,1658377530
300,Dingle,10.9995,122.6711,87.66,67,100,4.34,PH,1658377530
301,Churapcha,62.0025,132.4325,84.27,43,100,12.03,RU,1658377530
302,Necochea,-38.5473,-58.7368,54.9,61,5,17.74,AR,1658377531
303,Ilulissat,69.2167,-51.1,48.22,66,100,3.44,GL,1658377531
304,Arrifes,37.7667,-25.7,73.24,94,40,2.3,PT,1658377531
305,Nueva Loja,0.0847,-76.8828,67.57,99,100,2.17,EC,1658377532
306,Agudos,-22.4692,-48.9875,64.15,84,0,7.05,BR,1658377532
307,Rabo de Peixe,37.8,-25.5833,74.28,68,40,2.3,PT,1658377532
308,Keetmanshoop,-26.5833,18.1333,49.8,53,2,4.54,NA,1658377533
309,Almazar,40.3217,69.0106,93.25,14,0,6.38,UZ,1658377533
310,Airai,-8.9266,125.4092,71.26,59,60,3.62,TL,1658377468
311,Clyde River,70.4692,-68.5914,35.83,100,100,14.97,CA,1658377472
312,Tiksi,71.6872,128.8694,42.33,78,17,21.63,RU,1658377534
313,Tessalit,20.1986,1.0114,80.4,51,58,15.19,ML,1658377534
314,Sola,-13.8833,167.55,81.14,79,15,17.92,VU,1658377534
315,Klaksvík,62.2266,-6.589,49.12,91,79,17.74,FO,1658377535
316,Kuytun,54.3419,101.5036,71.4,50,73,8.48,RU,1658377535
317,Pacora,9.0833,-79.2833,76.17,90,40,4.61,PA,1658377535
318,Ostashkov,57.1467,33.1075,60.01,88,69,11.1,RU,1658377536
319,Natá,8.3333,-80.5167,76.15,94,100,5.26,PA,1658377536
320,Hamilton,39.1834,-84.5333,80.67,89,0,1.99,US,1658377536
321,Senneterre,48.3835,-77.2328,66.99,98,100,10.49,CA,1658377537
322,Vanimo,-2.6741,141.3028,86.77,64,56,10.74,PG,1658377538
323,Hede,33.7681,120.2517,81.95,69,81,2.8,CN,1658377538
324,Royan,45.6285,-1.0281,65.79,73,86,3.42,FR,1658377539
325,Al Bardīyah,31.7561,25.0865,73.74,68,0,10.11,LY,1658377539
326,Madang,-5.2246,145.7966,84.65,64,93,5.46,PG,1658377540
327,Viesca,25.35,-102.8,89.98,26,6,9.93,MX,1658377540
328,Örnsköldsvik,63.2909,18.7153,56.35,100,100,2.3,SE,1658377459
329,Andijan,40.7821,72.3442,88.88,9,0,1.86,UZ,1658377542
330,Sterlitamak,53.6246,55.9502,63.46,70,100,5.3,RU,1658377543
331,Ternate,0.8,127.4,82.67,75,96,4.97,ID,1658377543
332,Codrington,-38.2667,141.9667,59.61,56,4,8.66,AU,1658377528
333,Kouango,4.9934,19.9619,69.55,98,94,1.68,CF,1658377544
334,Algiers,36.7525,3.042,66.02,88,20,2.3,DZ,1658377282
335,Oga,46.4631,10.347,61.68,82,76,1.01,IT,1658377545
336,Vidim,56.4088,103.1106,72.82,44,25,4.32,RU,1658377545
337,San Juan,-31.5375,-68.5364,54.91,25,0,3.49,AR,1658377546
338,Mikrópolis,41.1935,23.8157,63.1,51,0,5.68,GR,1658377546
339,Saint Simons,31.1352,-81.3901,78.84,91,0,9.22,US,1658377547
340,Grand Gaube,-20.0064,57.6608,71.38,66,89,8.99,MU,1658377548
341,Ashland,40.8167,-82.2665,73.96,93,0,8.99,US,1658377326
342,Kristinehamn,59.3098,14.1081,64.96,64,84,6.29,SE,1658377549
343,Patacamaya,-17.2333,-67.9167,42.71,43,8,5.77,BO,1658377549
344,Bo Phloi,14.3236,99.5161,75.31,82,100,2.82,TH,1658377549
345,Avera,33.194,-82.5271,77.05,79,100,10.4,US,1658377550
346,Inuvik,68.3499,-133.7218,63.46,63,75,4.61,CA,1658377550
347,Alofi,-19.0595,-169.9187,76.89,69,1,13.8,NU,1658377551
348,Navalmoral de la Mata,39.8916,-5.5406,80.96,22,0,3.71,ES,1658377552
349,Chulym,55.0997,80.9572,66.72,76,98,9.82,RU,1658377552
350,Brae,60.3964,-1.353,52.84,77,97,17.65,GB,1658377553
351,Hofn,64.2539,-15.2082,51.94,80,50,5.17,IS,1658377554
352,Mehamn,71.0357,27.8492,60.75,82,0,8.05,NO,1658377554
353,Prabumulih,-3.45,104.25,87.01,59,44,5.88,ID,1658377555
354,Narón,43.5167,-8.1528,67.05,87,71,10.56,ES,1658377555
355,Cururupu,-1.8283,-44.8683,72.63,95,35,2.33,BR,1658377556
356,Kunda,25.7167,81.5167,85.5,75,100,1.12,IN,1658377339
357,Khasan,42.4308,130.6434,68.02,98,100,5.39,RU,1658377557
358,Cairns,-16.9167,145.7667,88.07,65,40,12.66,AU,1658377515
359,Pala,9.3642,14.9046,69.26,98,100,3.58,TD,1658377557
360,Orekhovo,45.1294,33.6318,70.52,74,35,4.81,UA,1658377558
361,Buckeye,33.3703,-112.5838,106.83,27,82,7.85,US,1658377558
362,Sitka,57.0531,-135.33,55.29,88,100,9.22,US,1658377559
363,Meulaboh,4.1363,96.1285,84.27,62,100,2.33,ID,1658376974
364,Huangcun,30.0145,118.4037,90.19,63,93,8.86,CN,1658377560
365,Narsaq,60.9167,-46.05,46.62,95,64,4.07,GL,1658377560
366,Labuan,5.2767,115.2417,88.16,70,20,6.91,MY,1658377561
367,Taoudenni,22.6783,-3.9836,90.91,38,86,14.97,ML,1658377561
368,Port Perry,44.1068,-78.9444,75.52,92,52,8.68,CA,1658377562
369,Bereket,39.2446,55.5154,87.08,53,0,10.38,TM,1658377386
370,Kizhinga,51.8462,109.9097,75.52,36,65,4.32,RU,1658377562
371,South Kazakhstan Region,43.0,68.0,101.89,11,0,18.34,KZ,1658377562
372,Manacapuru,-3.2997,-60.6206,74.73,91,91,3.91,BR,1658377563
373,High Prairie,55.4334,-116.4858,61.05,64,78,4.59,CA,1658377563
374,Deer Lake,49.1667,-57.4316,60.66,88,100,12.66,CA,1658377564
375,Revelstoke,50.9832,-118.2023,71.62,64,0,3.44,CA,1658377564
376,Kolpashevo,58.3131,82.9089,68.85,55,95,4.45,RU,1658377565
377,Aykhal,66.0,111.5,53.78,75,100,5.21,RU,1658377565
378,Hambantota,6.1241,81.1185,86.34,74,20,5.75,LK,1658377566
379,Bulgan,48.8125,103.5347,52.63,93,100,4.7,MN,1658377566
380,Berlevåg,70.8578,29.0864,60.8,82,75,8.05,NO,1658377567
381,Iquique,-20.2208,-70.1431,59.04,75,83,0.94,CL,1658377340
382,Gorodovikovsk,46.0878,41.9335,70.03,48,0,11.83,RU,1658377568
383,Holeby,54.7115,11.4642,67.05,87,59,4.18,DK,1658377569
384,Outjo,-20.1167,16.15,50.43,42,0,8.12,NA,1658377569
385,Kaliua,-5.0606,31.7936,61.36,63,2,6.93,TZ,1658377569
386,Masuguru,-11.3667,38.4167,63.09,92,0,1.59,TZ,1658377570
387,Kalianget,-7.05,113.9333,83.07,63,15,10.98,ID,1658377571
388,Khanpur,28.6453,70.6567,91.36,60,27,17.69,PK,1658377572
389,Lagoa,39.05,-27.9833,70.75,84,10,5.5,PT,1658377572
390,Nouadhibou,20.931,-17.0347,67.62,96,1,13.44,MR,1658377573
391,Grajewo,53.6473,22.4554,60.37,86,0,1.36,PL,1658377573
392,Ust-Nera,64.5667,143.2,70.54,58,100,7.9,RU,1658377574
393,San Carlos,9.6612,-68.5827,71.89,98,77,2.01,VE,1658377574
394,Road Town,18.4167,-64.6167,80.69,81,3,22.17,VG,1658377575
395,Departamento de Maldonado,-34.6667,-54.9167,56.59,96,48,8.34,UY,1658377575
396,Waipawa,-41.4122,175.5153,43.83,93,100,27.94,NZ,1658377576
397,Erenhot,43.6475,111.9767,90.81,18,3,7.92,CN,1658377577
398,Mariental,-24.6333,17.9667,50.43,43,0,5.73,NA,1658377577
399,Mathura,27.5,77.6833,86.41,67,98,4.74,IN,1658377566
400,Bitung,1.4451,125.1824,90.45,70,45,10.31,ID,1658377578
401,Bandrele,-12.9067,45.1914,67.75,100,0,3.44,YT,1658377578
402,Gorey,52.6747,-6.2925,51.85,85,61,5.86,IE,1658377579
403,San Lorenzo,-25.3333,-57.5333,72.54,64,0,6.91,PY,1658377579
404,Sioux Lookout,50.1001,-91.917,64.47,94,40,2.3,CA,1658377580
405,Ipixuna,-1.7625,-48.8043,73.13,95,70,3.8,BR,1658377580
406,Nouakchott,18.0858,-15.9785,76.93,80,100,14.45,MR,1658377548
407,Salym,60.0625,71.4789,70.25,50,83,5.44,RU,1658377581
408,Kenitra,34.261,-6.5802,66.96,82,97,2.33,MA,1658377582
409,Kokopo,-4.352,152.2633,84.97,63,99,8.12,PG,1658377583
410,Talnakh,69.4865,88.3972,57.4,68,100,11.12,RU,1658377486
411,Poum,-20.2333,164.0167,77.7,81,42,20.92,NC,1658377584
412,Mata,40.683,-7.4592,69.76,43,0,4.72,PT,1658377584
413,Hay River,60.8156,-115.7999,60.78,82,56,4.61,CA,1658377584
414,Natal,-5.795,-35.2094,75.42,94,75,9.22,BR,1658377449
415,Rochester,43.1548,-77.6156,84.07,60,20,14.97,US,1658376900
416,Bīkāpur,26.6,82.1333,88.47,64,100,10.25,IN,1658377585
417,Kavieng,-2.5744,150.7967,83.12,74,98,9.86,PG,1658377586
418,Solikamsk,59.6196,56.7729,61.34,73,61,5.23,RU,1658377586
419,Mentor,41.6662,-81.3395,78.46,83,75,8.05,US,1658377587
420,City of San Pedro,14.35,121.0167,84.31,77,75,2.3,PH,1658377588
421,Hīt,33.6416,42.8251,91.33,24,0,18.16,IQ,1658377589
422,Yuli,9.6989,10.2744,70.99,92,99,0.74,NG,1658377589
423,Malinyi,-8.9333,36.1333,63.41,84,70,0.6,TZ,1658377590
424,Faya,18.3851,42.4509,66.31,53,97,5.35,SA,1658377591
425,Flinders,-34.5833,150.8552,61.18,76,91,7.0,AU,1658377591
426,Bowen,-20.0167,148.2333,70.63,73,74,12.53,AU,1658377592
427,Katherine,-14.4667,132.2667,84.52,21,55,12.66,AU,1658377592
428,Ambon City,-3.6954,128.1814,80.74,78,40,5.75,ID,1658377593
429,Chanika,-5.4167,38.0167,59.27,99,61,3.29,TZ,1658377594
430,Biak,-0.9131,122.8766,81.16,77,33,3.83,ID,1658377595
431,Omboué,-1.5746,9.2618,71.69,87,100,6.69,GA,1658377595
432,Portland,45.5234,-122.6762,82.35,54,20,8.05,US,1658377524
433,Zinder,13.8072,8.9881,78.51,60,100,5.86,NE,1658377596
434,Lobito,-12.3481,13.5456,66.11,89,10,4.09,AO,1658377597
435,Gladstone,-23.85,151.25,60.73,94,100,26.46,AU,1658377597
436,Stokmarknes,68.5646,14.9108,55.38,88,75,11.5,NO,1658377598
437,Liverpool,53.4106,-2.9779,60.75,80,75,13.8,GB,1658377355
438,Vitim,59.4511,112.5578,68.31,65,100,5.59,RU,1658377599
439,Tasiilaq,65.6145,-37.6368,35.76,79,100,5.7,GL,1658377600
440,Marzuq,14.4,46.4667,75.27,59,95,7.38,YE,1658377600
441,Bauchi,10.5,10.0,68.81,93,100,2.64,NG,1658377600
442,Jiazi,22.8779,116.067,88.12,68,11,5.77,CN,1658377601
443,Pachino,36.7186,15.0907,78.06,69,0,4.09,IT,1658377601
444,Makassar,-5.14,119.4221,89.65,66,20,9.22,ID,1658377602
445,Oriximiná,-1.7656,-55.8661,72.95,95,84,2.24,BR,1658377603
446,Puerto Rondón,6.2805,-71.1,72.57,96,83,4.25,CO,1658377604
447,Devgarh,25.5333,73.9,79.9,77,100,15.1,IN,1658377605
448,Dwārka,22.2394,68.9678,82.56,82,99,21.9,IN,1658377606
449,Luga,58.7372,29.8453,62.44,75,35,8.05,RU,1658377607
450,New Ulm,44.3125,-94.4605,76.42,77,0,5.75,US,1658377607
451,Tilichiki,60.4667,166.1,65.41,38,7,9.31,RU,1658377608
452,Kütahya,39.4242,29.9833,55.33,57,0,3.02,TR,1658377608
453,Maniitsoq,65.4167,-52.9,46.4,95,100,9.57,GL,1658377610
454,Dodola,6.9833,39.1833,52.84,92,100,1.54,ET,1658377611
455,Dongfeng,42.6403,125.5118,67.51,92,100,2.73,CN,1658377611
456,Tabas,33.5959,56.9244,92.17,13,0,0.51,IR,1658377612
457,Price,39.5994,-110.8107,81.12,24,0,6.91,US,1658377613
458,Enshi,30.3,109.4833,74.19,97,100,1.3,CN,1658377613
459,Palmer,42.1584,-72.3287,79.97,77,0,4.88,US,1658377614
460,Shelburne,44.0787,-80.2041,68.45,83,0,11.12,CA,1658377615
461,Mbandaka,0.0487,18.2603,68.18,97,41,0.11,CD,1658377616
462,Arrondissement de Clermont,49.5,2.4167,64.71,97,33,6.78,FR,1658377617
463,The Valley,18.217,-63.0578,81.82,82,6,22.19,AI,1658377617
464,Bilibino,68.0546,166.4372,56.35,33,32,9.89,RU,1658377614
465,Adrar,20.5022,-10.0711,87.96,32,75,8.01,MR,1658377618
466,Magadan,59.5667,150.8,78.53,79,71,4.54,RU,1658377618
467,Willowmore,-33.2926,23.4895,40.24,92,0,2.82,ZA,1658377619
468,Fort Nelson,58.8053,-122.7002,67.59,49,75,3.44,CA,1658377619
469,Nerchinskiy Zavod,51.3088,119.61,80.51,57,69,5.21,RU,1658377620
470,Port Macquarie,-31.4333,152.9167,61.9,82,75,13.8,AU,1658377620
471,Babanka,48.7097,30.4483,58.5,65,0,10.09,UA,1658377621
472,Evensk,61.95,159.2333,68.65,37,18,1.68,RU,1658377621
473,De Aar,-30.6497,24.0123,46.4,66,2,2.75,ZA,1658377621
474,Gouré,13.9835,10.2704,73.02,74,89,5.82,NE,1658377622
475,Bhatkal,13.9667,74.5667,80.31,83,66,8.97,IN,1658377622
476,Pevek,69.7008,170.3133,32.25,93,98,16.78,RU,1658377623
477,Turaif,31.6725,38.6637,77.25,36,0,13.8,SA,1658377623
478,Mizque,-17.941,-65.3402,57.22,71,47,2.48,BO,1658377624
479,Homer,59.6425,-151.5483,57.09,67,0,17.0,US,1658377624
480,Anito,12.4497,125.2886,87.53,65,100,7.36,PH,1658377625
481,Shache,38.4167,77.2406,87.94,14,0,4.32,CN,1658377625
482,‘Ewa Beach,21.3156,-158.0072,84.15,57,0,17.27,US,1658377626
483,Ladybrand,-29.1945,27.4574,42.71,66,81,2.59,ZA,1658377627
484,Maragogi,-9.0122,-35.2225,73.96,89,100,10.47,BR,1658377627
485,Mahanoro,-19.9,48.8,66.54,80,43,6.2,MG,1658377627
486,Erzin,36.9559,36.2,77.74,75,0,3.49,TR,1658377628
487,Bereda,43.2686,-7.5406,62.58,100,98,6.2,ES,1658377628
488,Powell River,49.8496,-124.5361,73.67,73,0,2.35,CA,1658377629
489,Shingū,33.7333,135.9833,86.32,59,75,5.79,JP,1658377629
490,Poronaysk,49.2167,143.1167,59.7,86,100,7.27,RU,1658377629
491,Istmina,5.1605,-76.684,73.53,98,100,2.15,CO,1658377630
492,Santa Isabel,-23.3156,-46.2214,61.9,98,58,2.35,BR,1658377630
493,Nóvita,4.9551,-76.6053,74.75,98,100,1.79,CO,1658377630
494,Yangi Marg`ilon,40.4272,71.7189,92.12,19,0,4.61,UZ,1658377631
495,Pontes e Lacerda,-15.2261,-59.3353,66.97,45,5,2.06,BR,1658377629
496,Broome,42.2506,-75.833,79.86,70,0,9.22,US,1658377479
497,Hachinohe,40.5,141.5,75.24,87,82,2.82,JP,1658377631
498,Jinchang,38.4953,102.1739,61.03,57,100,14.03,CN,1658377632
499,Kudahuvadhoo,2.6708,72.8944,81.05,74,100,10.94,MV,1658377632
500,Gaza,31.5,34.4667,73.89,68,0,6.98,PS,1658377632
501,Porto-Novo,6.4965,2.6036,76.82,79,100,6.15,BJ,1658377633
502,Bubaque,11.2833,-15.8333,77.45,86,100,12.35,GW,1658377633
503,Big Bend,-26.8167,31.9333,60.89,94,59,1.14,SZ,1658377378
504,Prado,-17.3411,-39.2208,68.61,85,3,6.06,BR,1658377633
505,Yalta,44.5,34.1667,72.46,63,6,7.67,UA,1658377634
506,Tual,-5.6667,132.75,78.8,75,87,20.85,ID,1658377634
507,Cascais,38.6979,-9.4215,67.46,74,4,20.0,PT,1658377602
508,Juneau,58.3019,-134.4197,53.22,96,100,12.66,US,1658377635
509,Tot'ma,59.9747,42.7642,56.7,89,71,5.59,RU,1658377635
510,Grand Junction,39.0639,-108.5507,83.28,41,0,3.44,US,1658377343
511,Fare,-16.7,-151.0167,77.11,73,9,11.97,PF,1658377636
512,San Borja,-14.8167,-66.85,71.15,69,55,1.32,BO,1658377636
513,Oskarshamn,57.2645,16.4484,64.33,74,11,4.99,SE,1658377636
514,Senno,59.5336,33.9167,64.26,93,47,7.63,RU,1658377637
515,Kloulklubed,7.0419,134.2556,84.7,71,62,2.28,PW,1658377637
516,Ganzhou,28.8184,115.4327,93.81,57,100,9.66,CN,1658377637
517,Adré,13.4667,22.2,73.71,74,27,4.38,TD,1658377637
518,Santa Barbara,34.7333,-120.0343,72.34,64,0,6.91,US,1658377483
519,Ilo,-17.6394,-71.3375,59.31,82,88,4.52,PE,1658377638
520,Mattru,7.6244,-11.8332,71.73,97,100,3.53,SL,1658377464
521,Bhīmunipatnam,17.8833,83.4333,89.11,63,100,7.38,IN,1658377638
522,Paita,-5.0892,-81.1144,62.42,85,30,11.01,PE,1658377639
523,Makkah al Mukarramah,21.4267,39.8261,82.69,63,47,6.13,SA,1658377372
524,Agapovka,53.2973,59.1348,67.21,61,2,7.18,RU,1658377639
525,Det Udom,14.906,105.0784,82.22,73,100,13.18,TH,1658377640
526,Mainit,9.535,125.5231,82.58,79,100,1.88,PH,1658377640
527,Kiunga,-6.1219,141.2906,76.44,95,97,0.45,PG,1658377640
528,Goderich,43.7501,-81.7165,71.91,83,5,8.05,CA,1658377641
529,Magistral'nyy,56.1725,107.4458,73.9,48,94,1.59,RU,1658377641
530,Taltal,-25.4,-70.4833,56.77,88,100,1.5,CL,1658377641
531,Imeni Babushkina,59.7573,43.1285,57.31,88,51,5.26,RU,1658377642
532,Kargopol',61.5071,38.9456,59.41,88,29,4.99,RU,1658377642
533,Maceió,-9.6658,-35.7353,76.44,83,75,5.75,BR,1658377594
534,Abu Samrah,35.3029,37.1841,75.25,61,0,19.69,SY,1658377642
535,Dutlwe,-23.9833,23.9,51.48,79,69,6.8,BW,1658377643
536,Dukat,62.55,155.55,50.5,45,100,7.81,RU,1658377643
537,Livingston,55.9029,-3.5226,56.26,82,75,5.75,GB,1658377644
538,Haines Junction,60.7522,-137.5108,52.3,61,73,6.4,CA,1658377456
539,Alekseyevka,50.6309,38.6903,55.02,93,65,13.82,RU,1658377644
540,Jardim,-21.4803,-56.1381,67.17,42,54,2.71,BR,1658377644
541,Manbij,36.5281,37.9549,75.76,58,0,18.77,SY,1658377645
542,Alenquer,-1.9417,-54.7383,72.82,94,69,4.27,BR,1658377645
543,Aloleng,16.1307,119.7824,88.95,65,100,4.76,PH,1658377645
544,Puerto Suárez,-18.95,-57.8,69.21,39,70,2.66,BO,1658377646
545,Sabzawār,36.2126,57.6819,81.68,21,0,11.5,IR,1658377646
546,Birao,10.2849,22.7882,69.73,95,52,3.51,CF,1658377633
547,Hetauda,27.4284,85.0322,83.55,90,100,1.88,NP,1658377646
548,Fuling,29.7022,107.3919,84.02,78,96,3.96,CN,1658377647
549,Bintulu,3.1667,113.0333,91.81,66,20,4.61,MY,1658377647
550,Synya,65.3718,58.0387,68.22,51,12,1.68,RU,1658377648
551,Watsa,3.0372,29.5355,61.43,98,69,1.95,CD,1658377648
552,Yerbogachën,61.2767,108.0108,71.49,49,50,7.76,RU,1658377648
553,Novikovo,51.1537,37.8879,56.05,88,80,13.24,RU,1658377649
554,Trelew,-43.249,-65.3051,40.8,42,0,24.74,AR,1658377649
555,Alexandria,31.2156,29.9553,76.96,69,0,11.5,EG,1658377650
556,Vila Velha,-20.3297,-40.2925,66.94,93,0,3.44,BR,1658377650
557,Qarchī Gak,37.04,66.7889,97.41,10,0,11.14,AF,1658377650
558,Esim,4.8699,-2.2405,72.25,75,14,6.46,GH,1658377651
559,Slave Lake,55.2834,-114.769,66.18,55,0,6.91,CA,1658377545
560,Ilebo,-4.3167,20.5833,70.2,76,16,0.87,CD,1658377651
561,Arari,-3.4536,-44.78,70.41,82,32,2.71,BR,1658377651
562,Villa Unión,23.2,-106.2333,86.92,79,40,5.75,MX,1658377652
563,Humaitá,-7.5061,-63.0208,73.04,56,6,0.92,BR,1658377652
564,Banjar,-8.19,114.9675,86.7,56,74,3.11,ID,1658377652
565,Bunia,1.5667,30.25,61.2,87,67,1.52,CD,1658377653
